{
  "countries": [
    { "name": "Afghanistan", "code": "AF", "location": { "longitude": 67.709953, "latitude": 33.93911 } },
    { "name": "Albania", "code": "AL", "location": { "longitude": 20.168331, "latitude": 41.153332 } },
    { "name": "Algeria", "code": "DZ", "location": { "longitude": 1.659626, "latitude": 28.033886 } },
    { "name": "Andorra", "code": "AD", "location": { "longitude": 1.521801, "latitude": 42.506285 } },
    { "name": "Angola", "code": "AO", "location": { "longitude": 17.873887, "latitude": -11.202692 } },
    { "name": "Argentina", "code": "AR", "location": { "longitude": -63.616672, "latitude": -38.416097 } },
    { "name": "Armenia", "code": "AM", "location": { "longitude": 45.038189, "latitude": 40.069099 } },
    { "name": "Australia", "code": "AU", "location": { "longitude": 133.775136, "latitude": -25.274398 } },
    { "name": "Austria", "code": "AT", "location": { "longitude": 14.550072, "latitude": 47.516231 } },
    { "name": "Azerbaijan", "code": "AZ", "location": { "longitude": 47.576927, "latitude": 40.143105 } },
    { "name": "Bahamas", "code": "BS", "location": { "longitude": -77.39628, "latitude": 25.03428 } },
    { "name": "Bahrain", "code": "BH", "location": { "longitude": 50.55155, "latitude": 26.0667 } },
    { "name": "Bangladesh", "code": "BD", "location": { "longitude": 90.356331, "latitude": 23.684994 } },
    { "name": "Barbados", "code": "BB", "location": { "longitude": -59.543198, "latitude": 13.193887 } },
    { "name": "Belarus", "code": "BY", "location": { "longitude": 27.953389, "latitude": 53.709807 } },
    { "name": "Belgium", "code": "BE", "location": { "longitude": 4.469936, "latitude": 50.503887 } },
    { "name": "Belize", "code": "BZ", "location": { "longitude": -88.49765, "latitude": 17.189877 } },
    { "name": "Benin", "code": "BJ", "location": { "longitude": 2.315834, "latitude": 9.30769 } },
    { "name": "Bhutan", "code": "BT", "location": { "longitude": 90.433601, "latitude": 27.514162 } },
    { "name": "Bolivia", "code": "BO", "location": { "longitude": -63.588653, "latitude": -16.290154 } },
    { "name": "Bosnia and Herzegovina", "code": "BA", "location": { "longitude": 17.679076, "latitude": 43.915886 } },
    { "name": "Botswana", "code": "BW", "location": { "longitude": 24.684866, "latitude": -22.328474 } },
    { "name": "Brazil", "code": "BR", "location": { "longitude": -51.92528, "latitude": -14.235004 } },
    { "name": "Brunei", "code": "BN", "location": { "longitude": 114.727669, "latitude": 4.535277 } },
    { "name": "Bulgaria", "code": "BG", "location": { "longitude": 25.48583, "latitude": 42.733883 } },
    { "name": "Burkina Faso", "code": "BF", "location": { "longitude": -1.561593, "latitude": 12.238333 } },
    { "name": "Burundi", "code": "BI", "location": { "longitude": 29.918886, "latitude": -3.373056 } },
    { "name": "Cabo Verde", "code": "CV", "location": { "longitude": -23.0418, "latitude": 16.002043 } },
    { "name": "Cambodia", "code": "KH", "location": { "longitude": 104.990963, "latitude": 12.565679 } },
    { "name": "Cameroon", "code": "CM", "location": { "longitude": 12.354722, "latitude": 7.369722 } },
    { "name": "Canada", "code": "CA", "location": { "longitude": -106.346771, "latitude": 56.130366 } },
    { "name": "Central African Republic", "code": "CF", "location": { "longitude": 20.939444, "latitude": 6.611111 } },
    { "name": "Chad", "code": "TD", "location": { "longitude": 18.732207, "latitude": 15.454166 } },
    { "name": "Chile", "code": "CL", "location": { "longitude": -71.542969, "latitude": -35.675147 } },
    { "name": "China", "code": "CN", "location": { "longitude": 104.195397, "latitude": 35.86166 } },
    { "name": "Colombia", "code": "CO", "location": { "longitude": -74.297333, "latitude": 4.570868 } },
    { "name": "Comoros", "code": "KM", "location": { "longitude": 43.872219, "latitude": -11.6455 } },
    { "name": "Congo (Congo-Brazzaville)", "code": "CG", "location": { "longitude": 15.827659, "latitude": -0.228021 } },
    { "name": "Costa Rica", "code": "CR", "location": { "longitude": -83.753428, "latitude": 9.748917 } },
    { "name": "Croatia", "code": "HR", "location": { "longitude": 15.2, "latitude": 45.1 } },
    { "name": "Cuba", "code": "CU", "location": { "longitude": -77.781167, "latitude": 21.521757 } },
    { "name": "Cyprus", "code": "CY", "location": { "longitude": 33.429859, "latitude": 35.126413 } },
    { "name": "Czechia (Czech Republic)", "code": "CZ", "location": { "longitude": 15.472962, "latitude": 49.817492 } },
    { "name": "Democratic Republic of the Congo", "code": "CD", "location": { "longitude": 23.670272, "latitude": -4.038333 } },
    { "name": "Denmark", "code": "DK", "location": { "longitude": 9.501785, "latitude": 56.26392 } },
    { "name": "Djibouti", "code": "DJ", "location": { "longitude": 42.590275, "latitude": 11.825138 } },
    { "name": "Dominica", "code": "DM", "location": { "longitude": -61.370976, "latitude": 15.414999 } },
    { "name": "Dominican Republic", "code": "DO", "location": { "longitude": -70.162651, "latitude": 18.735693 } },
    { "name": "Ecuador", "code": "EC", "location": { "longitude": -78.183406, "latitude": -1.831239 } },
    { "name": "Egypt", "code": "EG", "location": { "longitude": 30.802498, "latitude": 26.820553 } },
    { "name": "El Salvador", "code": "SV", "location": { "longitude": -88.89653, "latitude": 13.794185 } },
    { "name": "Equatorial Guinea", "code": "GQ", "location": { "longitude": 10.267895, "latitude": 1.650801 } },
    { "name": "Eritrea", "code": "ER", "location": { "longitude": 39.782334, "latitude": 15.179384 } },
    { "name": "Estonia", "code": "EE", "location": { "longitude": 25.013607, "latitude": 58.595272 } },
    { "name": "Eswatini", "code": "SZ", "location": { "longitude": 31.465866, "latitude": -26.522503 } },
    { "name": "Ethiopia", "code": "ET", "location": { "longitude": 40.489673, "latitude": 9.145 } },
    { "name": "Fiji", "code": "FJ", "location": { "longitude": 178.065032, "latitude": -17.713371 } },
    { "name": "Finland", "code": "FI", "location": { "longitude": 25.748151, "latitude": 61.92411 } },
    { "name": "France", "code": "FR", "location": { "longitude": 2.213749, "latitude": 46.227638 } },
    { "name": "Gabon", "code": "GA", "location": { "longitude": 11.609444, "latitude": -0.803689 } },
    { "name": "Gambia", "code": "GM", "location": { "longitude": -15.310139, "latitude": 13.443182 } },
    { "name": "Georgia", "code": "GE", "location": { "longitude": 43.356892, "latitude": 42.315407 } },
    { "name": "Germany", "code": "DE", "location": { "longitude": 10.451526, "latitude": 51.165691 } },
    { "name": "Ghana", "code": "GH", "location": { "longitude": -1.023194, "latitude": 7.946527 } },
    { "name": "Greece", "code": "GR", "location": { "longitude": 21.824312, "latitude": 39.074208 } },
    { "name": "Grenada", "code": "GD", "location": { "longitude": -61.679109, "latitude": 12.1165 } },
    { "name": "Guatemala", "code": "GT", "location": { "longitude": -90.230759, "latitude": 15.783471 } },
    { "name": "Guinea", "code": "GN", "location": { "longitude": -9.696645, "latitude": 9.945587 } },
    { "name": "Guinea-Bissau", "code": "GW", "location": { "longitude": -15.180413, "latitude": 11.803749 } },
    { "name": "Guyana", "code": "GY", "location": { "longitude": -58.93018, "latitude": 4.860416 } },
    { "name": "Haiti", "code": "HT", "location": { "longitude": -72.285215, "latitude": 18.971187 } },
    { "name": "Honduras", "code": "HN", "location": { "longitude": -86.241905, "latitude": 15.199999 } },
    { "name": "Hungary", "code": "HU", "location": { "longitude": 19.503304, "latitude": 47.162494 } },
    { "name": "Iceland", "code": "IS", "location": { "longitude": -19.020835, "latitude": 64.963051 } },
    { "name": "India", "code": "IN", "location": { "longitude": 78.96288, "latitude": 20.593684 } },
    { "name": "Indonesia", "code": "ID", "location": { "longitude": 113.921327, "latitude": -0.789275 } },
    { "name": "Iran", "code": "IR", "location": { "longitude": 53.688046, "latitude": 32.427908 } },
    { "name": "Iraq", "code": "IQ", "location": { "longitude": 43.679291, "latitude": 33.223191 } },
    { "name": "Ireland", "code": "IE", "location": { "longitude": -8.24389, "latitude": 53.41291 } },
    { "name": "Israel", "code": "IL", "location": { "longitude": 34.851612, "latitude": 31.046051 } },
    { "name": "Italy", "code": "IT", "location": { "longitude": 12.56738, "latitude": 41.87194 } },
    { "name": "Jamaica", "code": "JM", "location": { "longitude": -77.297508, "latitude": 18.109581 } },
    { "name": "Japan", "code": "JP", "location": { "longitude": 138.252924, "latitude": 36.204824 } },
    { "name": "Jordan", "code": "JO", "location": { "longitude": 36.238414, "latitude": 30.585164 } },
    { "name": "Kazakhstan", "code": "KZ", "location": { "longitude": 66.923684, "latitude": 48.019573 } },
    { "name": "Kenya", "code": "KE", "location": { "longitude": 37.906193, "latitude": -0.023559 } },
    { "name": "Kiribati", "code": "KI", "location": { "longitude": -168.734039, "latitude": -3.370417 } },
    { "name": "Kuwait", "code": "KW", "location": { "longitude": 47.481766, "latitude": 29.31166 } },
    { "name": "Kyrgyzstan", "code": "KG", "location": { "longitude": 74.766098, "latitude": 41.20438 } },
    { "name": "Laos", "code": "LA", "location": { "longitude": 102.495496, "latitude": 19.85627 } },
    { "name": "Latvia", "code": "LV", "location": { "longitude": 24.603189, "latitude": 56.879635 } },
    { "name": "Lebanon", "code": "LB", "location": { "longitude": 35.862285, "latitude": 33.854721 } },
    { "name": "Lesotho", "code": "LS", "location": { "longitude": 28.233583, "latitude": -29.609988 } },
    { "name": "Liberia", "code": "LR", "location": { "longitude": -9.429499, "latitude": 6.428055 } },
    { "name": "Libya", "code": "LY", "location": { "longitude": 17.228331, "latitude": 26.3351 } },
    { "name": "Liechtenstein", "code": "LI", "location": { "longitude": 9.555373, "latitude": 47.166 } },
    { "name": "Lithuania", "code": "LT", "location": { "longitude": 23.881275, "latitude": 55.169438 } },
    { "name": "Luxembourg", "code": "LU", "location": { "longitude": 6.129583, "latitude": 49.815273 } },
    { "name": "Madagascar", "code": "MG", "location": { "longitude": 46.869107, "latitude": -18.766947 } },
    { "name": "Malawi", "code": "MW", "location": { "longitude": 34.301528, "latitude": -13.254308 } },
    { "name": "Malaysia", "code": "MY", "location": { "longitude": 101.975766, "latitude": 4.210484 } },
    { "name": "Maldives", "code": "MV", "location": { "longitude": 73.536105, "latitude": 3.202778 } },
    { "name": "Mali", "code": "ML", "location": { "longitude": -3.996166, "latitude": 17.570692 } },
    { "name": "Malta", "code": "MT", "location": { "longitude": 14.453054, "latitude": 35.937496 } },
    { "name": "Marshall Islands", "code": "MH", "location": { "longitude": 171.184478, "latitude": 7.131474 } },
    { "name": "Mauritania", "code": "MR", "location": { "longitude": -10.940835, "latitude": 21.00789 } },
    { "name": "Mauritius", "code": "MU", "location": { "longitude": 57.552152, "latitude": -20.348404 } },
    { "name": "Mexico", "code": "MX", "location": { "longitude": -102.552784, "latitude": 23.634501 } },
    { "name": "Micronesia", "code": "FM", "location": { "longitude": 150.550812, "latitude": 7.425554 } },
    { "name": "Moldova", "code": "MD", "location": { "longitude": 28.369885, "latitude": 47.411631 } },
    { "name": "Monaco", "code": "MC", "location": { "longitude": 7.412841, "latitude": 43.750298 } },
    { "name": "Mongolia", "code": "MN", "location": { "longitude": 103.846656, "latitude": 46.862496 } },
    { "name": "Montenegro", "code": "ME", "location": { "longitude": 19.37439, "latitude": 42.708678 } },
    { "name": "Morocco", "code": "MA", "location": { "longitude": -7.09262, "latitude": 31.791702 } },
    { "name": "Mozambique", "code": "MZ", "location": { "longitude": 35.529562, "latitude": -18.665695 } },
    { "name": "Myanmar (Burma)", "code": "MM", "location": { "longitude": 95.956223, "latitude": 21.916221 } },
    { "name": "Namibia", "code": "NA", "location": { "longitude": 18.49041, "latitude": -22.95764 } },
    { "name": "Nauru", "code": "NR", "location": { "longitude": 166.931503, "latitude": -0.522778 } },
    { "name": "Nepal", "code": "NP", "location": { "longitude": 84.124008, "latitude": 28.394857 } },
    { "name": "Netherlands", "code": "NL", "location": { "longitude": 5.291266, "latitude": 52.132633 } },
    { "name": "New Zealand", "code": "NZ", "location": { "longitude": 174.885971, "latitude": -40.900557 } },
    { "name": "Nicaragua", "code": "NI", "location": { "longitude": -85.207229, "latitude": 12.865416 } },
    { "name": "Niger", "code": "NE", "location": { "longitude": 8.081666, "latitude": 17.607789 } },
    { "name": "Nigeria", "code": "NG", "location": { "longitude": 8.675277, "latitude": 9.081999 } },
    { "name": "North Korea", "code": "KP", "location": { "longitude": 127.510093, "latitude": 40.339852 } },
    { "name": "North Macedonia", "code": "MK", "location": { "longitude": 21.745275, "latitude": 41.608635 } },
    { "name": "Norway", "code": "NO", "location": { "longitude": 8.468946, "latitude": 60.472024 } },
    { "name": "Oman", "code": "OM", "location": { "longitude": 55.923255, "latitude": 21.473533 } },
    { "name": "Pakistan", "code": "PK", "location": { "longitude": 69.345116, "latitude": 30.375321 } },
    { "name": "Palau", "code": "PW", "location": { "longitude": 134.58252, "latitude": 7.51498 } },
    { "name": "Panama", "code": "PA", "location": { "longitude": -80.782127, "latitude": 8.537981 } },
    { "name": "Papua New Guinea", "code": "PG", "location": { "longitude": 143.95555, "latitude": -6.314993 } },
    { "name": "Paraguay", "code": "PY", "location": { "longitude": -58.443832, "latitude": -23.442503 } },
    { "name": "Peru", "code": "PE", "location": { "longitude": -75.015152, "latitude": -9.189967 } },
    { "name": "Philippines", "code": "PH", "location": { "longitude": 121.774017, "latitude": 12.879721 } },
    { "name": "Poland", "code": "PL", "location": { "longitude": 19.145136, "latitude": 51.919438 } },
    { "name": "Portugal", "code": "PT", "location": { "longitude": -8.224454, "latitude": 39.399872 } },
    { "name": "Qatar", "code": "QA", "location": { "longitude": 51.183884, "latitude": 25.354826 } },
    { "name": "Romania", "code": "RO", "location": { "longitude": 24.96676, "latitude": 45.943161 } },
    { "name": "Russia", "code": "RU", "location": { "longitude": 105.318756, "latitude": 61.52401 } },
    { "name": "Rwanda", "code": "RW", "location": { "longitude": 29.873888, "latitude": -1.940278 } },
    { "name": "Saint Kitts and Nevis", "code": "KN", "location": { "longitude": -62.782998, "latitude": 17.357822 } },
    { "name": "Saint Lucia", "code": "LC", "location": { "longitude": -60.978893, "latitude": 13.909444 } },
    { "name": "Saint Vincent and the Grenadines", "code": "VC", "location": { "longitude": -61.287228, "latitude": 12.984305 } },
    { "name": "Samoa", "code": "WS", "location": { "longitude": -172.104629, "latitude": -13.759029 } },
    { "name": "San Marino", "code": "SM", "location": { "longitude": 12.457777, "latitude": 43.94236 } },
    { "name": "Sao Tome and Principe", "code": "ST", "location": { "longitude": 6.613081, "latitude": 0.18636 } },
    { "name": "Saudi Arabia", "code": "SA", "location": { "longitude": 45.079162, "latitude": 23.885942 } },
    { "name": "Senegal", "code": "SN", "location": { "longitude": -14.452362, "latitude": 14.497401 } },
    { "name": "Serbia", "code": "RS", "location": { "longitude": 21.005859, "latitude": 44.016521 } },
    { "name": "Seychelles", "code": "SC", "location": { "longitude": 55.491977, "latitude": -4.679574 } },
    { "name": "Sierra Leone", "code": "SL", "location": { "longitude": -11.779889, "latitude": 8.460555 } },
    { "name": "Singapore", "code": "SG", "location": { "longitude": 103.819836, "latitude": 1.352083 } },
    { "name": "Slovakia", "code": "SK", "location": { "longitude": 19.699024, "latitude": 48.669026 } },
    { "name": "Slovenia", "code": "SI", "location": { "longitude": 14.995463, "latitude": 46.151241 } },
    { "name": "Solomon Islands", "code": "SB", "location": { "longitude": 160.156194, "latitude": -9.64571 } },
    { "name": "Somalia", "code": "SO", "location": { "longitude": 46.199616, "latitude": 5.152149 } },
    { "name": "South Africa", "code": "ZA", "location": { "longitude": 22.937506, "latitude": -30.559482 } },
    { "name": "South Korea", "code": "KR", "location": { "longitude": 127.766922, "latitude": 35.907757 } },
    { "name": "South Sudan", "code": "SS", "location": { "longitude": 31.306979, "latitude": 6.876992 } },
    { "name": "Spain", "code": "ES", "location": { "longitude": -3.74922, "latitude": 40.463667 } },
    { "name": "Sri Lanka", "code": "LK", "location": { "longitude": 80.771797, "latitude": 7.873054 } },
    { "name": "Sudan", "code": "SD", "location": { "longitude": 30.217636, "latitude": 12.862807 } },
    { "name": "Suriname", "code": "SR", "location": { "longitude": -56.027783, "latitude": 3.919305 } },
    { "name": "Sweden", "code": "SE", "location": { "longitude": 18.643501, "latitude": 60.128161 } },
    { "name": "Switzerland", "code": "CH", "location": { "longitude": 8.227512, "latitude": 46.818188 } },
    { "name": "Syria", "code": "SY", "location": { "longitude": 38.996815, "latitude": 34.802075 } },
    { "name": "Taiwan", "code": "TW", "location": { "longitude": 120.960515, "latitude": 23.69781 } },
    { "name": "Tajikistan", "code": "TJ", "location": { "longitude": 71.276093, "latitude": 38.861034 } },
    { "name": "Tanzania", "code": "TZ", "location": { "longitude": 34.888822, "latitude": -6.369028 } },
    { "name": "Thailand", "code": "TH", "location": { "longitude": 100.992541, "latitude": 15.870032 } },
    { "name": "Timor-Leste", "code": "TL", "location": { "longitude": 125.727539, "latitude": -8.874217 } },
    { "name": "Togo", "code": "TG", "location": { "longitude": 0.824782, "latitude": 8.619543 } },
    { "name": "Tonga", "code": "TO", "location": { "longitude": -175.198242, "latitude": -21.178986 } },
    { "name": "Trinidad and Tobago", "code": "TT", "location": { "longitude": -61.222503, "latitude": 10.691803 } },
    { "name": "Tunisia", "code": "TN", "location": { "longitude": 9.537499, "latitude": 33.886917 } },
    { "name": "Turkey", "code": "TR", "location": { "longitude": 35.243322, "latitude": 38.963745 } },
    { "name": "Turkmenistan", "code": "TM", "location": { "longitude": 59.556278, "latitude": 38.969719 } },
    { "name": "Tuvalu", "code": "TV", "location": { "longitude": 177.64933, "latitude": -7.109535 } },
    { "name": "Uganda", "code": "UG", "location": { "longitude": 32.290275, "latitude": 1.373333 } },
    { "name": "Ukraine", "code": "UA", "location": { "longitude": 31.16558, "latitude": 48.379433 } },
    { "name": "United Arab Emirates", "code": "AE", "location": { "longitude": 53.847818, "latitude": 23.424076 } },
    { "name": "United Kingdom", "code": "GB", "location": { "longitude": -3.435973, "latitude": 55.378051 } },
    { "name": "United States", "code": "US", "location": { "longitude": -95.712891, "latitude": 37.09024 } },
    { "name": "Uruguay", "code": "UY", "location": { "longitude": -55.765835, "latitude": -32.522779 } },
    { "name": "Uzbekistan", "code": "UZ", "location": { "longitude": 64.585262, "latitude": 41.377491 } },
    { "name": "Vanuatu", "code": "VU", "location": { "longitude": 166.959158, "latitude": -15.376706 } },
    { "name": "Vatican City", "code": "VA", "location": { "longitude": 12.453389, "latitude": 41.902916 } },
    { "name": "Venezuela", "code": "VE", "location": { "longitude": -66.58973, "latitude": 6.42375 } },
    { "name": "Vietnam", "code": "VN", "location": { "longitude": 108.277199, "latitude": 14.058324 } },
    { "name": "Yemen", "code": "YE", "location": { "longitude": 48.516388, "latitude": 15.552727 } },
    { "name": "Zambia", "code": "ZM", "location": { "longitude": 27.849332, "latitude": -13.133897 } },
    { "name": "Zimbabwe", "code": "ZW", "location": { "longitude": 29.154857, "latitude": -19.015438 } }
  ],
 "cities": [
    { "name": "London", "country": "GB", "location": { "longitude": -0.127758, "latitude": 51.507351 } },
    { "name": "Paris", "country": "FR", "location": { "longitude": 2.352222, "latitude": 48.856614 } },
    { "name": "Berlin", "country": "DE", "location": { "longitude": 13.404954, "latitude": 52.520007 } },
    { "name": "Hamburg", "country": "DE", "location": { "longitude": 9.993682, "latitude": 53.551085 } },
    { "name": "Munich", "country": "DE", "location": { "longitude": 11.581981, "latitude": 48.135125 } },
    { "name": "Frankfurt", "country": "DE", "location": { "longitude": 8.682127, "latitude": 50.110922 } },
    { "name": "Madrid", "country": "ES", "location": { "longitude": -3.70379, "latitude": 40.416775 } },
    { "name": "Barcelona", "country": "ES", "location": { "longitude": 2.173403, "latitude": 41.385064 } },
    { "name": "Rome", "country": "IT", "location": { "longitude": 12.496366, "latitude": 41.902783 } },
    { "name": "Milan", "country": "IT", "location": { "longitude": 9.185924, "latitude": 45.464204 } },
    { "name": "Vienna", "country": "AT", "location": { "longitude": 16.373819, "latitude": 48.208174 } },
    { "name": "Salzburg", "country": "AT", "location": { "longitude": 13.05501, "latitude": 47.80949 } },
    { "name": "Bregenz", "country": "AT", "location": { "longitude": 9.74231, "latitude": 47.50311 } },
    { "name": "Wels", "country": "AT", "location": { "longitude": 14.0216, "latitude": 48.15751 } },
    { "name": "Hallein", "country": "AT", "location": { "longitude": 13.08917, "latitude": 47.68306 } },
    { "name": "Braunau", "country": "AT", "location": { "longitude": 13.04344, "latitude": 48.25841 } },
    { "name": "St. Johann", "country": "AT", "location": { "longitude": 13.20456, "latitude": 47.34863 } },
    { "name": "Linz", "country": "AT", "location": { "longitude": 14.28583, "latitude": 48.30694 } },
    { "name": "St. Pölten", "country": "AT", "location": { "longitude": 15.62311, "latitude": 48.20473 } },
    { "name": "Eisenstadt", "country": "AT", "location": { "longitude": 16.52327, "latitude": 47.84565 } },
    { "name": "Zurich", "country": "CH", "location": { "longitude": 8.541694, "latitude": 47.376887 } },
    { "name": "Geneva", "country": "CH", "location": { "longitude": 6.143158, "latitude": 46.204391 } },
    { "name": "Amsterdam", "country": "NL", "location": { "longitude": 4.895168, "latitude": 52.370216 } },
    { "name": "Rotterdam", "country": "NL", "location": { "longitude": 4.477733, "latitude": 51.9225 } },
    { "name": "Brussels", "country": "BE", "location": { "longitude": 4.35171, "latitude": 50.85034 } },
    { "name": "Stockholm", "country": "SE", "location": { "longitude": 18.068581, "latitude": 59.329323 } },
    { "name": "Copenhagen", "country": "DK", "location": { "longitude": 12.568337, "latitude": 55.676097 } },
    { "name": "Oslo", "country": "NO", "location": { "longitude": 10.752245, "latitude": 59.913869 } },
    { "name": "Helsinki", "country": "FI", "location": { "longitude": 24.938379, "latitude": 60.169856 } },
    { "name": "Dublin", "country": "IE", "location": { "longitude": -6.26031, "latitude": 53.349805 } },
    { "name": "Lisbon", "country": "PT", "location": { "longitude": -9.139337, "latitude": 38.722252 } },
    { "name": "Porto", "country": "PT", "location": { "longitude": -8.629105, "latitude": 41.157944 } },
    { "name": "Prague", "country": "CZ", "location": { "longitude": 14.4378, "latitude": 50.075538 } },
    { "name": "Warsaw", "country": "PL", "location": { "longitude": 21.012229, "latitude": 52.229676 } },
    { "name": "Krakow", "country": "PL", "location": { "longitude": 19.94498, "latitude": 50.06465 } },
    { "name": "Budapest", "country": "HU", "location": { "longitude": 19.040235, "latitude": 47.497912 } },
    { "name": "Athens", "country": "GR", "location": { "longitude": 23.727539, "latitude": 37.98381 } },
    { "name": "Thessaloniki", "country": "GR", "location": { "longitude": 22.944419, "latitude": 40.640063 } },
    { "name": "Istanbul", "country": "TR", "location": { "longitude": 28.978359, "latitude": 41.008238 } },
    { "name": "New York", "country": "US", "location": { "longitude": -74.005973, "latitude": 40.712775 } },
    { "name": "Los Angeles", "country": "US", "location": { "longitude": -118.243685, "latitude": 34.052234 } },
    { "name": "Chicago", "country": "US", "location": { "longitude": -87.629798, "latitude": 41.878114 } },
    { "name": "Houston", "country": "US", "location": { "longitude": -95.369803, "latitude": 29.760427 } },
    { "name": "Phoenix", "country": "US", "location": { "longitude": -112.074037, "latitude": 33.448377 } },
    { "name": "Philadelphia", "country": "US", "location": { "longitude": -75.165222, "latitude": 39.952584 } },
    { "name": "San Antonio", "country": "US", "location": { "longitude": -98.493628, "latitude": 29.424122 } },
    { "name": "San Diego", "country": "US", "location": { "longitude": -117.161084, "latitude": 32.715738 } },
    { "name": "Dallas", "country": "US", "location": { "longitude": -96.796988, "latitude": 32.776664 } },
    { "name": "San Jose", "country": "US", "location": { "longitude": -121.886329, "latitude": 37.338208 } },
    { "name": "San Francisco", "country": "US", "location": { "longitude": -122.419416, "latitude": 37.774929 } },
    { "name": "Seattle", "country": "US", "location": { "longitude": -122.332071, "latitude": 47.606209 } },
    { "name": "Boston", "country": "US", "location": { "longitude": -71.05888, "latitude": 42.360082 } },
    { "name": "Miami", "country": "US", "location": { "longitude": -80.19179, "latitude": 25.76168 } },
    { "name": "Washington, D.C.", "country": "US", "location": { "longitude": -77.036871, "latitude": 38.907192 } },
    { "name": "Toronto", "country": "CA", "location": { "longitude": -79.383184, "latitude": 43.653226 } },
    { "name": "Vancouver", "country": "CA", "location": { "longitude": -123.120738, "latitude": 49.282729 } },
    { "name": "Montreal", "country": "CA", "location": { "longitude": -73.567256, "latitude": 45.501689 } },
    { "name": "Calgary", "country": "CA", "location": { "longitude": -114.071883, "latitude": 51.044733 } },
    { "name": "Ottawa", "country": "CA", "location": { "longitude": -75.697193, "latitude": 45.42153 } },
    { "name": "Mexico City", "country": "MX", "location": { "longitude": -99.133208, "latitude": 19.432608 } },
    { "name": "Guadalajara", "country": "MX", "location": { "longitude": -103.349602, "latitude": 20.659699 } },
    { "name": "Monterrey", "country": "MX", "location": { "longitude": -100.316113, "latitude": 25.686614 } },
    { "name": "São Paulo", "country": "BR", "location": { "longitude": -46.633309, "latitude": -23.55052 } },
    { "name": "Rio de Janeiro", "country": "BR", "location": { "longitude": -43.172896, "latitude": -22.906847 } },
    { "name": "Brasília", "country": "BR", "location": { "longitude": -47.882166, "latitude": -15.794229 } },
    { "name": "Buenos Aires", "country": "AR", "location": { "longitude": -58.381557, "latitude": -34.603684 } },
    { "name": "Córdoba", "country": "AR", "location": { "longitude": -64.18875, "latitude": -31.4135 } },
    { "name": "Santiago", "country": "CL", "location": { "longitude": -70.669265, "latitude": -33.44889 } },
    { "name": "Valparaíso", "country": "CL", "location": { "longitude": -71.612686, "latitude": -33.047238 } },
    { "name": "Lima", "country": "PE", "location": { "longitude": -77.042793, "latitude": -12.046374 } },
    { "name": "Bogotá", "country": "CO", "location": { "longitude": -74.072092, "latitude": 4.710989 } },
    { "name": "Medellín", "country": "CO", "location": { "longitude": -75.564574, "latitude": 6.244203 } },
    { "name": "Caracas", "country": "VE", "location": { "longitude": -66.903606, "latitude": 10.480594 } },
    { "name": "Tokyo", "country": "JP", "location": { "longitude": 139.691706, "latitude": 35.689487 } },
    { "name": "Osaka", "country": "JP", "location": { "longitude": 135.502165, "latitude": 34.693738 } },
    { "name": "Nagoya", "country": "JP", "location": { "longitude": 136.906398, "latitude": 35.181446 } },
    { "name": "Seoul", "country": "KR", "location": { "longitude": 126.977969, "latitude": 37.566535 } },
    { "name": "Busan", "country": "KR", "location": { "longitude": 129.075642, "latitude": 35.179554 } },
    { "name": "Beijing", "country": "CN", "location": { "longitude": 116.407395, "latitude": 39.904211 } },
    { "name": "Shanghai", "country": "CN", "location": { "longitude": 121.473701, "latitude": 31.230416 } },
    { "name": "Shenzhen", "country": "CN", "location": { "longitude": 114.057865, "latitude": 22.543096 } },
    { "name": "Guangzhou", "country": "CN", "location": { "longitude": 113.264385, "latitude": 23.12911 } },
    { "name": "Hong Kong", "country": "CN", "location": { "longitude": 114.169361, "latitude": 22.319304 } },
    { "name": "Taipei", "country": "TW", "location": { "longitude": 121.565418, "latitude": 25.032969 } },
    { "name": "Singapore", "country": "SG", "location": { "longitude": 103.819836, "latitude": 1.352083 } },
    { "name": "Bangkok", "country": "TH", "location": { "longitude": 100.501765, "latitude": 13.756331 } },
    { "name": "Phuket", "country": "TH", "location": { "longitude": 98.39225, "latitude": 7.880442 } },
    { "name": "Kuala Lumpur", "country": "MY", "location": { "longitude": 101.686855, "latitude": 3.139003 } },
    { "name": "Jakarta", "country": "ID", "location": { "longitude": 106.845599, "latitude": -6.208763 } },
    { "name": "Bali", "country": "ID", "location": { "longitude": 115.091951, "latitude": -8.340539 } },
    { "name": "Manila", "country": "PH", "location": { "longitude": 120.984219, "latitude": 14.599512 } },
    { "name": "Delhi", "country": "IN", "location": { "longitude": 77.10249, "latitude": 28.704059 } },
    { "name": "Mumbai", "country": "IN", "location": { "longitude": 72.877656, "latitude": 19.075984 } },
    { "name": "Bangalore", "country": "IN", "location": { "longitude": 77.594563, "latitude": 12.971599 } },
    { "name": "Hyderabad", "country": "IN", "location": { "longitude": 78.486671, "latitude": 17.385044 } },
    { "name": "Chennai", "country": "IN", "location": { "longitude": 80.270718, "latitude": 13.08268 } },
    { "name": "Dubai", "country": "AE", "location": { "longitude": 55.270783, "latitude": 25.204849 } },
    { "name": "Abu Dhabi", "country": "AE", "location": { "longitude": 54.377344, "latitude": 24.453884 } },
    { "name": "Doha", "country": "QA", "location": { "longitude": 51.53104, "latitude": 25.285447 } },
    { "name": "Riyadh", "country": "SA", "location": { "longitude": 46.675296, "latitude": 24.713552 } },
    { "name": "Jeddah", "country": "SA", "location": { "longitude": 39.172779, "latitude": 21.543333 } },
    { "name": "Tel Aviv", "country": "IL", "location": { "longitude": 34.781768, "latitude": 32.0853 } },
    { "name": "Jerusalem", "country": "IL", "location": { "longitude": 35.21371, "latitude": 31.768319 } },
    { "name": "Cairo", "country": "EG", "location": { "longitude": 31.235712, "latitude": 30.04442 } },
    { "name": "Alexandria", "country": "EG", "location": { "longitude": 29.918739, "latitude": 31.200092 } },
    { "name": "Lagos", "country": "NG", "location": { "longitude": 3.379206, "latitude": 6.524379 } },
    { "name": "Abuja", "country": "NG", "location": { "longitude": 7.49508, "latitude": 9.076479 } },
    { "name": "Nairobi", "country": "KE", "location": { "longitude": 36.821946, "latitude": -1.292066 } },
    { "name": "Mombasa", "country": "KE", "location": { "longitude": 39.663587, "latitude": -4.038133 } },
    { "name": "Cape Town", "country": "ZA", "location": { "longitude": 18.42322, "latitude": -33.924869 } },
    { "name": "Johannesburg", "country": "ZA", "location": { "longitude": 28.047305, "latitude": -26.204103 } },
    { "name": "Durban", "country": "ZA", "location": { "longitude": 31.02184, "latitude": -29.85868 } },
    { "name": "Casablanca", "country": "MA", "location": { "longitude": -7.589843, "latitude": 33.57311 } },
    { "name": "Marrakesh", "country": "MA", "location": { "longitude": -7.981084, "latitude": 31.629472 } },
    { "name": "Sydney", "country": "AU", "location": { "longitude": 151.209296, "latitude": -33.86882 } },
    { "name": "Melbourne", "country": "AU", "location": { "longitude": 144.963058, "latitude": -37.813628 } },
    { "name": "Brisbane", "country": "AU", "location": { "longitude": 153.025124, "latitude": -27.469771 } },
    { "name": "Perth", "country": "AU", "location": { "longitude": 115.860457, "latitude": -31.950527 } },
    { "name": "Adelaide", "country": "AU", "location": { "longitude": 138.600742, "latitude": -34.928499 } },
    { "name": "Auckland", "country": "NZ", "location": { "longitude": 174.763332, "latitude": -36.84846 } },
    { "name": "Wellington", "country": "NZ", "location": { "longitude": 174.776236, "latitude": -41.28646 } },
    { "name": "Edinburgh", "country": "GB", "location": { "longitude": -3.188267, "latitude": 55.953252 } },
    { "name": "Manchester", "country": "GB", "location": { "longitude": -2.242631, "latitude": 53.480759 } },
    { "name": "Lyon", "country": "FR", "location": { "longitude": 4.835659, "latitude": 45.764043 } },
    { "name": "Marseille", "country": "FR", "location": { "longitude": 5.36978, "latitude": 43.296482 } },
    { "name": "Cologne", "country": "DE", "location": { "longitude": 6.958307, "latitude": 50.937531 } },
    { "name": "Stuttgart", "country": "DE", "location": { "longitude": 9.182932, "latitude": 48.775846 } },
    { "name": "Düsseldorf", "country": "DE", "location": { "longitude": 6.776159, "latitude": 51.227741 } },
    { "name": "Valencia", "country": "ES", "location": { "longitude": -0.376288, "latitude": 39.469907 } },
    { "name": "Seville", "country": "ES", "location": { "longitude": -5.984459, "latitude": 37.389092 } },
    { "name": "Naples", "country": "IT", "location": { "longitude": 14.268124, "latitude": 40.851775 } },
    { "name": "Turin", "country": "IT", "location": { "longitude": 7.686856, "latitude": 45.070312 } },
    { "name": "Graz", "country": "AT", "location": { "longitude": 15.4395, "latitude": 47.07071 } },
    { "name": "Innsbruck", "country": "AT", "location": { "longitude": 11.40411, "latitude": 47.26921 } },
    { "name": "Basel", "country": "CH", "location": { "longitude": 7.588576, "latitude": 47.559599 } },
    { "name": "The Hague", "country": "NL", "location": { "longitude": 4.3007, "latitude": 52.0705 } },
    { "name": "Antwerp", "country": "BE", "location": { "longitude": 4.402464, "latitude": 51.219448 } },
    { "name": "Gothenburg", "country": "SE", "location": { "longitude": 11.97456, "latitude": 57.70887 } },
    { "name": "Reykjavik", "country": "IS", "location": { "longitude": -21.942401, "latitude": 64.126521 } },
    { "name": "Luxembourg", "country": "LU", "location": { "longitude": 6.131935, "latitude": 49.611621 } },
    { "name": "Bratislava", "country": "SK", "location": { "longitude": 17.107748, "latitude": 48.148596 } },
    { "name": "Ljubljana", "country": "SI", "location": { "longitude": 14.505751, "latitude": 46.056947 } },
    { "name": "Zagreb", "country": "HR", "location": { "longitude": 15.981919, "latitude": 45.815011 } },
    { "name": "Belgrade", "country": "RS", "location": { "longitude": 20.448922, "latitude": 44.786568 } },
    { "name": "Sofia", "country": "BG", "location": { "longitude": 23.321867, "latitude": 42.697708 } },
    { "name": "Bucharest", "country": "RO", "location": { "longitude": 26.102538, "latitude": 44.426767 } },
    { "name": "Kyiv", "country": "UA", "location": { "longitude": 30.5234, "latitude": 50.4501 } },
    { "name": "Las Vegas", "country": "US", "location": { "longitude": -115.13983, "latitude": 36.169941 } },
    { "name": "Denver", "country": "US", "location": { "longitude": -104.990251, "latitude": 39.739236 } },
    { "name": "Atlanta", "country": "US", "location": { "longitude": -84.387982, "latitude": 33.748995 } },
    { "name": "Detroit", "country": "US", "location": { "longitude": -83.045754, "latitude": 42.331427 } },
    { "name": "Minneapolis", "country": "US", "location": { "longitude": -93.265011, "latitude": 44.977753 } },
    { "name": "Quebec City", "country": "CA", "location": { "longitude": -71.207981, "latitude": 46.813878 } },
{ "name": "Edmonton", "country": "CA", "location": { "longitude": -113.4909, "latitude": 53.5444 } },
    { "name": "Havana", "country": "CU", "location": { "longitude": -82.3666, "latitude": 23.1136 } },
    { "name": "Panama City", "country": "PA", "location": { "longitude": -79.5193, "latitude": 8.9833 } },
    { "name": "Recife", "country": "BR", "location": { "longitude": -34.8770, "latitude": -8.0539 } },
    { "name": "Porto Alegre", "country": "BR", "location": { "longitude": -51.2177, "latitude": -30.0346 } },
    { "name": "Quito", "country": "EC", "location": { "longitude": -78.4678, "latitude": -0.1807 } },
    { "name": "La Paz", "country": "BO", "location": { "longitude": -68.1193, "latitude": -16.4897 } },
    { "name": "Montevideo", "country": "UY", "location": { "longitude": -56.1645, "latitude": -34.9011 } },
    { "name": "Sapporo", "country": "JP", "location": { "longitude": 141.3544, "latitude": 43.0621 } },
    { "name": "Fukuoka", "country": "JP", "location": { "longitude": 130.4017, "latitude": 33.5904 } },
    { "name": "Incheon", "country": "KR", "location": { "longitude": 126.7052, "latitude": 37.4563 } },
    { "name": "Chengdu", "country": "CN", "location": { "longitude": 104.0665, "latitude": 30.5723 } },
    { "name": "Chongqing", "country": "CN", "location": { "longitude": 106.5516, "latitude": 29.5630 } },
    { "name": "Hangzhou", "country": "CN", "location": { "longitude": 120.1551, "latitude": 30.2741 } },
    { "name": "Macau", "country": "CN", "location": { "longitude": 113.5439, "latitude": 22.1987 } },
    { "name": "Hanoi", "country": "VN", "location": { "longitude": 105.8342, "latitude": 21.0278 } },
    { "name": "Ho Chi Minh City", "country": "VN", "location": { "longitude": 106.6602, "latitude": 10.7627 } },
    { "name": "Phnom Penh", "country": "KH", "location": { "longitude": 104.9282, "latitude": 11.5449 } },
    { "name": "Yangon", "country": "MM", "location": { "longitude": 96.1561, "latitude": 16.8661 } },
    { "name": "Karachi", "country": "PK", "location": { "longitude": 67.0011, "latitude": 24.8607 } },
    { "name": "Lahore", "country": "PK", "location": { "longitude": 74.3587, "latitude": 31.5204 } },
    { "name": "Kathmandu", "country": "NP", "location": { "longitude": 85.3240, "latitude": 27.7172 } },
    { "name": "Colombo", "country": "LK", "location": { "longitude": 79.8612, "latitude": 6.9271 } },
    { "name": "Kuwait City", "country": "KW", "location": { "longitude": 47.9783, "latitude": 29.3759 } },
    { "name": "Muscat", "country": "OM", "location": { "longitude": 58.4059, "latitude": 23.5859 } },
    { "name": "Amman", "country": "JO", "location": { "longitude": 35.9285, "latitude": 31.9454 } },
    { "name": "Beirut", "country": "LB", "location": { "longitude": 35.5018, "latitude": 33.8938 } },
    { "name": "Addis Ababa", "country": "ET", "location": { "longitude": 38.7578, "latitude": 9.0192 } },
    { "name": "Accra", "country": "GH", "location": { "longitude": -0.1870, "latitude": 5.6037 } },
    { "name": "Dakar", "country": "SN", "location": { "longitude": -17.4467, "latitude": 14.7167 } },
    { "name": "Tunis", "country": "TN", "location": { "longitude": 10.1815, "latitude": 36.8065 } },
    { "name": "Algiers", "country": "DZ", "location": { "longitude": 3.0588, "latitude": 36.7538 } },
    { "name": "Canberra", "country": "AU", "location": { "longitude": 149.1287, "latitude": -35.2809 } },
    { "name": "Gold Coast", "country": "AU", "location": { "longitude": 153.4000, "latitude": -28.0167 } },
    { "name": "Christchurch", "country": "NZ", "location": { "longitude": 172.6362, "latitude": -43.5321 } },
    { "name": "Birmingham", "country": "GB", "location": { "longitude": -1.8904, "latitude": 52.4862 } },
    { "name": "Glasgow", "country": "GB", "location": { "longitude": -4.2518, "latitude": 55.8642 } },
    { "name": "Nice", "country": "FR", "location": { "longitude": 7.2661, "latitude": 43.7102 } },
    { "name": "Toulouse", "country": "FR", "location": { "longitude": 1.4442, "latitude": 43.6047 } },
    { "name": "Bremen", "country": "DE", "location": { "longitude": 8.8017, "latitude": 53.0793 } },
    { "name": "Leipzig", "country": "DE", "location": { "longitude": 12.3731, "latitude": 51.3397 } },
    { "name": "Bilbao", "country": "ES", "location": { "longitude": -2.9350, "latitude": 43.2630 } },
    { "name": "Malaga", "country": "ES", "location": { "longitude": -4.4214, "latitude": 36.7213 } },
    { "name": "Palermo", "country": "IT", "location": { "longitude": 13.3613, "latitude": 38.1157 } },
    { "name": "Bologna", "country": "IT", "location": { "longitude": 11.3426, "latitude": 44.4949 } },
    { "name": "Lausanne", "country": "CH", "location": { "longitude": 6.6323, "latitude": 46.5197 } },
    { "name": "Utrecht", "country": "NL", "location": { "longitude": 5.1214, "latitude": 52.0907 } },
    { "name": "Eindhoven", "country": "NL", "location": { "longitude": 5.4697, "latitude": 51.4416 } },
    { "name": "Ghent", "country": "BE", "location": { "longitude": 3.7174, "latitude": 51.0543 } },
    { "name": "Aarhus", "country": "DK", "location": { "longitude": 10.2039, "latitude": 56.1567 } },
    { "name": "Bergen", "country": "NO", "location": { "longitude": 5.3221, "latitude": 60.3913 } },
    { "name": "Turku", "country": "FI", "location": { "longitude": 22.2666, "latitude": 60.4518 } },
    { "name": "Cork", "country": "IE", "location": { "longitude": -8.4756, "latitude": 51.8985 } },
    { "name": "Tallinn", "country": "EE", "location": { "longitude": 24.7536, "latitude": 59.4370 } },
    { "name": "Riga", "country": "LV", "location": { "longitude": 24.1052, "latitude": 56.9496 } },
    { "name": "Vilnius", "country": "LT", "location": { "longitude": 25.2797, "latitude": 54.6872 } },
    { "name": "Skopje", "country": "MK", "location": { "longitude": 21.4280, "latitude": 41.9981 } },
    { "name": "Sarajevo", "country": "BA", "location": { "longitude": 18.4131, "latitude": 43.8563 } },
    { "name": "Tirana", "country": "AL", "location": { "longitude": 19.8187, "latitude": 41.3275 } },
    { "name": "Portland", "country": "US", "location": { "longitude": -122.6750, "latitude": 45.5051 } },
    { "name": "Austin", "country": "US", "location": { "longitude": -97.7431, "latitude": 30.2672 } },
    { "name": "Orlando", "country": "US", "location": { "longitude": -81.3792, "latitude": 28.5383 } },
    { "name": "Tampa", "country": "US", "location": { "longitude": -82.4572, "latitude": 27.9506 } },
    { "name": "Charlotte", "country": "US", "location": { "longitude": -80.8431, "latitude": 35.2271 } },
    { "name": "Salt Lake City", "country": "US", "location": { "longitude": -111.8910, "latitude": 40.7608 } },
    { "name": "Kansas City", "country": "US", "location": { "longitude": -94.5786, "latitude": 39.0997 } },
    { "name": "Cleveland", "country": "US", "location": { "longitude": -81.6944, "latitude": 41.4993 } },
    { "name": "Pittsburgh", "country": "US", "location": { "longitude": -79.9959, "latitude": 40.4406 } },
    { "name": "Indianapolis", "country": "US", "location": { "longitude": -86.1581, "latitude": 39.7684 } },
    { "name": "Nashville", "country": "US", "location": { "longitude": -86.7816, "latitude": 36.1627 } },
    { "name": "Columbus", "country": "US", "location": { "longitude": -82.9988, "latitude": 39.9612 } },
    { "name": "Cincinnati", "country": "US", "location": { "longitude": -84.5120, "latitude": 39.1031 } },
    { "name": "Milwaukee", "country": "US", "location": { "longitude": -87.9065, "latitude": 43.0389 } },
    { "name": "Raleigh", "country": "US", "location": { "longitude": -78.6382, "latitude": 35.7796 } },
    { "name": "Halifax", "country": "CA", "location": { "longitude": -63.5752, "latitude": 44.6488 } },
    { "name": "Winnipeg", "country": "CA", "location": { "longitude": -97.1384, "latitude": 49.8951 } },
    { "name": "San Juan", "country": "PR", "location": { "longitude": -66.1057, "latitude": 18.4663 } },
    { "name": "San Jose", "country": "CR", "location": { "longitude": -84.0907, "latitude": 9.9281 } },
    { "name": "Guatemala City", "country": "GT", "location": { "longitude": -90.5069, "latitude": 14.6349 } },
    { "name": "Salvador", "country": "BR", "location": { "longitude": -38.5016, "latitude": -12.9714 } },
    { "name": "Fortaleza", "country": "BR", "location": { "longitude": -38.5267, "latitude": -3.7319 } },
    { "name": "Curitiba", "country": "BR", "location": { "longitude": -49.2733, "latitude": -25.4284 } },
    { "name": "Rosario", "country": "AR", "location": { "longitude": -60.6393, "latitude": -32.9442 } },
    { "name": "Guayaquil", "country": "EC", "location": { "longitude": -79.9082, "latitude": -2.1710 } },
    { "name": "Arequipa", "country": "PE", "location": { "longitude": -71.5350, "latitude": -16.4090 } },
    { "name": "Yokohama", "country": "JP", "location": { "longitude": 139.6380, "latitude": 35.4437 } },
    { "name": "Kobe", "country": "JP", "location": { "longitude": 135.1955, "latitude": 34.6901 } },
    { "name": "Kyoto", "country": "JP", "location": { "longitude": 135.7681, "latitude": 35.0116 } },
    { "name": "Daegu", "country": "KR", "location": { "longitude": 128.6014, "latitude": 35.8714 } },
    { "name": "Daejeon", "country": "KR", "location": { "longitude": 127.3845, "latitude": 36.3504 } },
    { "name": "Tianjin", "country": "CN", "location": { "longitude": 117.2010, "latitude": 39.1256 } },
    { "name": "Wuhan", "country": "CN", "location": { "longitude": 114.3055, "latitude": 30.5928 } },
    { "name": "Nanjing", "country": "CN", "location": { "longitude": 118.7969, "latitude": 32.0584 } },
    { "name": "Suzhou", "country": "CN", "location": { "longitude": 120.6196, "latitude": 31.2990 } },
    { "name": "Xi'an", "country": "CN", "location": { "longitude": 108.9398, "latitude": 34.3416 } },
    { "name": "Dhaka", "country": "BD", "location": { "longitude": 90.4125, "latitude": 23.8103 } },
    { "name": "Chittagong", "country": "BD", "location": { "longitude": 91.7832, "latitude": 22.3569 } },
    { "name": "Tehran", "country": "IR", "location": { "longitude": 51.3890, "latitude": 35.6892 } },
    { "name": "Baghdad", "country": "IQ", "location": { "longitude": 44.3661, "latitude": 33.3152 } },
    { "name": "Ankara", "country": "TR", "location": { "longitude": 32.8597, "latitude": 39.9334 } },
    { "name": "Izmir", "country": "TR", "location": { "longitude": 27.1428, "latitude": 38.4237 } },
    { "name": "Khartoum", "country": "SD", "location": { "longitude": 32.5599, "latitude": 15.5007 } },
    { "name": "Kampala", "country": "UG", "location": { "longitude": 32.5825, "latitude": 0.3476 } },
    { "name": "Dar es Salaam", "country": "TZ", "location": { "longitude": 39.2083, "latitude": -6.7924 } },
    { "name": "Kigali", "country": "RW", "location": { "longitude": 30.0619, "latitude": -1.9441 } },
    { "name": "Harare", "country": "ZW", "location": { "longitude": 31.0492, "latitude": -17.8252 } },
    { "name": "Luanda", "country": "AO", "location": { "longitude": 13.2345, "latitude": -8.8368 } },
    { "name": "Hobart", "country": "AU", "location": { "longitude": 147.3272, "latitude": -42.8821 } },
    { "name": "Darwin", "country": "AU", "location": { "longitude": 130.8456, "latitude": -12.4634 } },
    { "name": "Queenstown", "country": "NZ", "location": { "longitude": 168.6626, "latitude": -45.0312 } }
    ]
}
